{"status":{"code":"success","request_time":"2019-01-26T09:01:03Z","num_results":66,"num_returned":66},"locations":[{"location_id":1396099342,"display_name":"Concordia - NE 29th Ave/NE Rosa Parks Way - Lot","address":{"street":"6504 NE 29th Ave.","city":"Portland","region_name":"Oregon","postal_code":"97211","country_code":"US"},"coordinates":{"lat":45.56988451423382,"lng":-122.63605724000001},"num_vehicles":1,"products":[{"type":"standard","label":"Zipcars"}]},{"location_id":68892889,"display_name":"OHSU - Gaines St - Lot 60","address":{"street":"820 S.W. Gaines St","city":"Portland","region_name":"Oregon","postal_code":"97201","country_code":"US"},"coordinates":{"lat":45.49595361557394,"lng":-122.68739193677902},"num_vehicles":1,"products":[{"type":"standard","label":"Zipcars"}]},{"location_id":68894024,"display_name":"PSU - SW 10th Ave/SW Montgomery St - On-Street","address":{"street":"1830 SW 10th Ave.","city":"Portland","region_name":"Oregon","postal_code":"97201","country_code":"US"},"coordinates":{"lat":45.51227368790332,"lng":-122.68620639802873},"num_vehicles":3,"products":[{"type":"standard","label":"Zipcars"},{"type":"vans","label":"Vans"}]},{"location_id":1161996605,"display_name":"PSU - SW Mill St/SW 10th Ave - Parkmill Lot","address":{"street":"1630 SW 10th Ave.","city":"Portland","region_name":"Oregon","postal_code":"97201","country_code":"US"},"coordinates":{"lat":45.5137211,"lng":-122.685487},"num_vehicles":3,"products":[{"type":"standard","label":"Zipcars"}]},{"location_id":273195046,"display_name":"SW Columbia St/SW 10th Ave - U-Park Lot","address":{"street":"980 SW Columbia St","city":"Portland","region_name":"Oregon","postal_code":"97201","country_code":"US"},"coordinates":{"lat":45.51512006084109,"lng":-122.68448844232785},"num_vehicles":3,"products":[{"type":"standard","label":"Zipcars"}]},{"location_id":345360613,"display_name":"SW 17th Ave/SW Clay St -  On-Street","address":{"street":"1450 SW 17th Ave","city":"Portland","region_name":"Oregon","postal_code":"97201","country_code":"US"},"coordinates":{"lat":45.51669692490452,"lng":-122.69179210372954},"num_vehicles":3,"products":[{"type":"standard","label":"Zipcars"}]},{"location_id":68891571,"display_name":"PSU - SW 6th Ave/SW Harrison St - Parking Garage 1","address":{"street":"1831 SW 6th Ave","city":"Portland","region_name":"Oregon","postal_code":"97201","country_code":"US"},"coordinates":{"lat":45.5108241097947,"lng":-122.68335923296695},"num_vehicles":2,"products":[{"type":"standard","label":"Zipcars"}]},{"location_id":1295305252,"display_name":"PSU - SW Lincoln St/SW 4th Ave - University Place Hotel","address":{"street":"310 SW Lincoln Street","city":"Portland","region_name":"Oregon","postal_code":"97201","country_code":"US"},"coordinates":{"lat":45.507642307246755,"lng":-122.68068858682005},"num_vehicles":1,"products":[{"type":"standard","label":"Zipcars"},{"type":"vans","label":"Vans"}]},{"location_id":68892123,"display_name":"245 SW Lincoln St - Linc245 Apartments","address":{"street":"245 SW Lincoln","city":"Portland","region_name":"Oregon","postal_code":"97201","country_code":"US"},"coordinates":{"lat":45.50859517726281,"lng":-122.68032896182768},"num_vehicles":5,"products":[{"type":"standard","label":"Zipcars"}]},{"location_id":171276754,"display_name":"1700 SW 4th Ave - Cyan PDX Apartments Garage","address":{"street":"1700  SW 4th Ave.","city":"Portland","region_name":"Oregon","postal_code":"97201","country_code":"US"},"coordinates":{"lat":45.51154799326967,"lng":-122.68010437488556},"num_vehicles":2,"products":[{"type":"standard","label":"Zipcars"}]},{"location_id":1680243257,"display_name":"PSU - SW Market St/SW 4th Ave - Market Center Building Garage","address":{"street":"1600 Southwest 4th Avenue","city":"Portland","region_name":"Oregon","postal_code":"97201","country_code":"US"},"coordinates":{"lat":45.51229559605799,"lng":-122.67971203439333},"num_vehicles":3,"products":[{"type":"standard","label":"Zipcars"}]},{"location_id":68891774,"display_name":"SW Clay St/SW 2nd Ave - Crown Plaza Garage","address":{"street":"1500 SW 2nd Ave.","city":"Portland","region_name":"Oregon","postal_code":"97204","country_code":"US"},"coordinates":{"lat":45.51250940021547,"lng":-122.67724111676216},"num_vehicles":1,"products":[{"type":"standard","label":"Zipcars"}]},{"location_id":328393426,"display_name":"740 SW 10th Ave - SmartPark Garage","address":{"street":"740 SW 10th Ave","city":"Portland","region_name":"Oregon","postal_code":"97205","country_code":"US"},"coordinates":{"lat":45.51969677209854,"lng":-122.68222868442535},"num_vehicles":2,"products":[{"type":"standard","label":"Zipcars"}]},{"location_id":68891481,"display_name":"1025 SW 6th Ave - Congress Center Garage","address":{"street":"1025 S.W. 6th Ave.","city":"Portland","region_name":"Oregon","postal_code":"97204","country_code":"US"},"coordinates":{"lat":45.51695722268526,"lng":-122.68003563379898},"num_vehicles":1,"products":[{"type":"standard","label":"Zipcars"}]},{"location_id":398649440,"display_name":"SW 12th Ave/SW Washington St - Indigo12West Garage","address":{"street":"431 SW 12th Ave","city":"Portland","region_name":"Oregon","postal_code":"97205","country_code":"US"},"coordinates":{"lat":45.522198675831284,"lng":-122.68341422080994},"num_vehicles":1,"products":[{"type":"standard","label":"Zipcars"}]},{"location_id":412825250,"display_name":"1111 NW Davis St - Pearl Garage - UPark","address":{"street":"1111 NW Davis","city":"Portland","region_name":"Oregon","postal_code":"97209","country_code":"US"},"coordinates":{"lat":45.524523252386544,"lng":-122.68269538879395},"num_vehicles":2,"products":[{"type":"standard","label":"Zipcars"}]},{"location_id":68892516,"display_name":"SW 4th Ave/SW Yamhill St - Smartpark Garage","address":{"street":"852 S.W. 4th Ave.","city":"Portland","region_name":"Oregon","postal_code":"97204","country_code":"US"},"coordinates":{"lat":45.517507418990135,"lng":-122.67705135047436},"num_vehicles":1,"products":[{"type":"standard","label":"Zipcars"}]},{"location_id":1294023672,"display_name":"330 SW Washington Ave - Avis Rental Car Garage","address":{"street":"330 SW Washington Ave","city":"Portland","region_name":"Oregon","postal_code":"97205","country_code":"US"},"coordinates":{"lat":45.51913896364168,"lng":-122.6754314716394},"num_vehicles":1,"products":[{"type":"standard","label":"Zipcars"}]},{"location_id":68893296,"display_name":"201 SW 5th Ave - US Bancorp Plaza Garage","address":{"street":"201 S.W. 5th Ave.","city":"Portland","region_name":"Oregon","postal_code":"97204","country_code":"US"},"coordinates":{"lat":45.52218749433818,"lng":-122.67599524113922},"num_vehicles":1,"products":[{"type":"standard","label":"Zipcars"}]},{"location_id":1882582134,"display_name":"SW Bancroft St/SW Bond Ave - Old Spaghetti Factory","address":{"street":"742 Southwest Bancroft Street","city":"Portland","region_name":"Oregon","postal_code":"97239","country_code":"US"},"coordinates":{"lat":45.4931359,"lng":-122.6705517},"num_vehicles":2,"products":[{"type":"standard","label":"Zipcars"}]},{"location_id":2038661364,"display_name":"SW Gaines St/SW Bond Ave - On-Street","address":{"street":"601 Southwest Gaines Street","city":"Portland","region_name":"Oregon","postal_code":"97239","country_code":"US"},"coordinates":{"lat":45.4964459,"lng":-122.6716381},"num_vehicles":1,"products":[{"type":"standard","label":"Zipcars"}]},{"location_id":770108202,"display_name":"SE 12th Ave/SE Harrison St - On-Street","address":{"street":"1970 SE 12th Ave","city":"Portland","region_name":"Oregon","postal_code":"97214","country_code":"US"},"coordinates":{"lat":45.50878298237564,"lng":-122.65379257232792},"num_vehicles":1,"products":[{"type":"standard","label":"Zipcars"},{"type":"vans","label":"Vans"}]},{"location_id":68891496,"display_name":"SE Stark St/SE 12th Ave - On-Street","address":{"street":"1208 SE Stark","city":"Portland","region_name":"Oregon","postal_code":"97214","country_code":"US"},"coordinates":{"lat":45.51930389584631,"lng":-122.65318221957398},"num_vehicles":1,"products":[{"type":"standard","label":"Zipcars"}]},{"location_id":118858404,"display_name":"Reed College - North Parking Lot","address":{"street":"3300 SE Steele St.","city":"Portland","region_name":"Oregon","postal_code":"97202","country_code":"US"},"coordinates":{"lat":45.4830037387405,"lng":-122.63025552034378},"num_vehicles":2,"products":[{"type":"standard","label":"Zipcars"}]},{"location_id":68894694,"display_name":"SE 16th Ave/SE Division St - St Philip Neri Lot","address":{"street":"2408 SE 16th ave.","city":"Portland","region_name":"Oregon","postal_code":"97214","country_code":"US"},"coordinates":{"lat":45.50503451368963,"lng":-122.64871648983643},"num_vehicles":1,"products":[{"type":"standard","label":"Zipcars"}]},{"location_id":68891129,"display_name":"SE Elliott Ave/SE Hawthorne St - On-Street","address":{"street":"1521 S.E. Elliott Ave.","city":"Portland","region_name":"Oregon","postal_code":"97214","country_code":"US"},"coordinates":{"lat":45.5118703436652,"lng":-122.64556288719177},"num_vehicles":1,"products":[{"type":"standard","label":"Zipcars"}]},{"location_id":68892537,"display_name":"SE Belmont St/SE 32nd Ave - On-Street","address":{"street":"3230 S.E. Belmont St.","city":"Portland","region_name":"Oregon","postal_code":"97214","country_code":"US"},"coordinates":{"lat":45.516403729160395,"lng":-122.63188496232033},"num_vehicles":1,"products":[{"type":"standard","label":"Zipcars"}]},{"location_id":355750145,"display_name":"SE Cesar Chavez Blvd/SE Division St - 76 Gas Station Lot","address":{"street":"2505 SE Cesar E. Chavez Blvd","city":"Portland","region_name":"Oregon","postal_code":"97202","country_code":"US"},"coordinates":{"lat":45.50448,"lng":-122.62290208465578},"num_vehicles":2,"products":[{"type":"standard","label":"Zipcars"}]},{"location_id":154011910,"display_name":"SE Holgate St/SE 43rd Ave - On-Street","address":{"street":"4313 SE Holgate","city":"Portland","region_name":"Oregon","postal_code":"97206","country_code":"US"},"coordinates":{"lat":45.49032707466094,"lng":-122.6176343858242},"num_vehicles":1,"products":[{"type":"standard","label":"Zipcars"}]},{"location_id":499731877,"display_name":"SE 38th Ave/SE Main St - On-Street","address":{"street":"1350 SE 38th Ave","city":"Portland","region_name":"Oregon","postal_code":"97214","country_code":"US"},"coordinates":{"lat":45.5132235,"lng":-122.6244828},"num_vehicles":1,"products":[{"type":"standard","label":"Zipcars"}]},{"location_id":1182723121,"display_name":"SE Belmont St/SE Peacock Ln - On-Street","address":{"street":"3984 SE Belmont","city":"Portland","region_name":"Oregon","postal_code":"97214","country_code":"US"},"coordinates":{"lat":45.516566618863884,"lng":-122.6220023298564},"num_vehicles":1,"products":[{"type":"standard","label":"Zipcars"},{"type":"vans","label":"Vans"}]},{"location_id":1364429485,"display_name":"Trimet - Clackamas Town Center Transit Center","address":{"street":"9225 SE Sunnyside rd","city":"Clackamas","region_name":"Oregon","postal_code":"97015","country_code":"US"},"coordinates":{"lat":45.435650315561965,"lng":-122.56828595819701},"num_vehicles":1,"products":[{"type":"standard","label":"Zipcars"}]},{"location_id":69118366,"display_name":"NE 60th Ave/NE Everett St - On-Street","address":{"street":"349 N.E. 60th Ave.","city":"Portland","region_name":"Oregon","postal_code":"97213","country_code":"US"},"coordinates":{"lat":45.52537544778167,"lng":-122.60234579443932},"num_vehicles":1,"products":[{"type":"standard","label":"Zipcars"}]},{"location_id":1128903997,"display_name":"Warner Pacific - SE 68th Ave/SE Division St - Lot","address":{"street":"2219 SE 68th Avenue","city":"Portland","region_name":"Oregon","postal_code":"97215","country_code":"US"},"coordinates":{"lat":45.5057680083484,"lng":-122.59323819405671},"num_vehicles":1,"products":[{"type":"standard","label":"Zipcars"}]},{"location_id":1214031054,"display_name":"Trimet - NE 99th Ave/NE Multnomah St - Gateway Transit Center","address":{"street":"1250 NE 99th Ave","city":"Portland","region_name":"Oregon","postal_code":"97220","country_code":"US"},"coordinates":{"lat":45.531487145921474,"lng":-122.56353295833588},"num_vehicles":3,"products":[{"type":"standard","label":"Zipcars"}]},{"location_id":788541776,"display_name":"NW Pettygrove St/NW 20th Ave - On-Street","address":{"street":"1984 NW Pettygrove st","city":"portland","region_name":"Oregon","postal_code":"97209","country_code":"US"},"coordinates":{"lat":45.53267105934238,"lng":-122.69238138042601},"num_vehicles":1,"products":[{"type":"standard","label":"Zipcars"}]},{"location_id":68890495,"display_name":"NW Marshall St/NW 11th Ave - On-Street","address":{"street":"1052 NW Marshall ave.","city":"Portland","region_name":"Oregon","postal_code":"97209","country_code":"US"},"coordinates":{"lat":45.53078502416611,"lng":-122.68192023038864},"num_vehicles":1,"products":[{"type":"standard","label":"Zipcars"}]},{"location_id":377967924,"display_name":"NW Irving St/NW 10th Ave - Ecotrust Lot","address":{"street":"710 NW 10th Ave","city":"Portland","region_name":"Oregon","postal_code":"97209","country_code":"US"},"coordinates":{"lat":45.52811986142385,"lng":-122.68109276890755},"num_vehicles":1,"products":[{"type":"standard","label":"Zipcars"}]},{"location_id":775907619,"display_name":"N Failing St/N Albina Ave - On-Street","address":{"street":"822 N Failing Street","city":"Portland","region_name":"Oregon","postal_code":"97227","country_code":"US"},"coordinates":{"lat":45.550818123757416,"lng":-122.67465614077264},"num_vehicles":1,"products":[{"type":"standard","label":"Zipcars"},{"type":"vans","label":"Vans"}]},{"location_id":68894335,"display_name":"N Albina Ave/N Alberta St - Neil Kelly Parking Lot","address":{"street":"4916 N Albina","city":"Portland","region_name":"Oregon","postal_code":"97217","country_code":"US"},"coordinates":{"lat":45.55849649545238,"lng":-122.67517575463103},"num_vehicles":1,"products":[{"type":"standard","label":"Zipcars"}]},{"location_id":68891651,"display_name":"N Interstate Ave/N Rosa Parks Way - On-Street","address":{"street":"6422 N. Interstate Ave.","city":"Portland","region_name":"Oregon","postal_code":"97217","country_code":"US"},"coordinates":{"lat":45.56964553180089,"lng":-122.68198996782303},"num_vehicles":1,"products":[{"type":"standard","label":"Zipcars"}]},{"location_id":2014345906,"display_name":"NE Hassalo St/NE 7th Ave - Hassalo on Eighth","address":{"street":"700 Northeast Hassalo Street","city":"Portland","region_name":"Oregon","postal_code":"97232","country_code":"US"},"coordinates":{"lat":45.5307758,"lng":-122.6596532},"num_vehicles":1,"products":[{"type":"standard","label":"Zipcars"}]},{"location_id":1848628517,"display_name":"NE 7th Ave/NE Multnomah St - Lloyd Center Tower Visitor Lot","address":{"street":"825 Northeast Multnomah Street","city":"Portland","region_name":"Oregon","postal_code":"97232","country_code":"US"},"coordinates":{"lat":45.5317977,"lng":-122.6571713},"num_vehicles":1,"products":[{"type":"standard","label":"Zipcars"}]},{"location_id":1115728521,"display_name":"NE 9th Ave/NE Multnomah St - Lloyd Center Tower Service Lot","address":{"street":"1338 NE 9th Ave","city":"Portland","region_name":"Oregon","postal_code":"97232","country_code":"US"},"coordinates":{"lat":45.53261144946984,"lng":-122.65684655648346},"num_vehicles":1,"products":[{"type":"standard","label":"Zipcars"},{"type":"vans","label":"Vans"}]},{"location_id":68894033,"display_name":"NE Broadway St/NE 9th Ave - On-Street","address":{"street":"912 N.E. Broadway St.","city":"Portland","region_name":"Oregon","postal_code":"97232","country_code":"US"},"coordinates":{"lat":45.53500212728977,"lng":-122.65629038214684},"num_vehicles":1,"products":[{"type":"standard","label":"Zipcars"}]},{"location_id":461492562,"display_name":"3951 N Williams Ave - On-Street","address":{"street":"3951 N. Williams Avenue","city":"Portland","region_name":"Oregon","postal_code":"97227","country_code":"US"},"coordinates":{"lat":45.55144338012643,"lng":-122.66688108444214},"num_vehicles":1,"products":[{"type":"standard","label":"Zipcars"}]},{"location_id":68890367,"display_name":"NE Rosa Parks Way/NE MLK Blvd - On-Street","address":{"street":"387 NE Rosa Parks Way","city":"Portland","region_name":"Oregon","postal_code":"97211","country_code":"US"},"coordinates":{"lat":45.57005392100039,"lng":-122.66164004802704},"num_vehicles":1,"products":[{"type":"standard","label":"Zipcars"}]},{"location_id":445100475,"display_name":"NE Broadway St/NE 24th Ave - Lot","address":{"street":"2371 NE Broadway","city":"Portland","region_name":"Oregon","postal_code":"97232","country_code":"US"},"coordinates":{"lat":45.5351899243226,"lng":-122.641390713254},"num_vehicles":1,"products":[{"type":"standard","label":"Zipcars"}]},{"location_id":154136099,"display_name":"NE 15th Ave/NE Knott St - On-Street","address":{"street":"2685 NE 15th Ave.","city":"Portland","region_name":"Oregon","postal_code":"97212","country_code":"US"},"coordinates":{"lat":45.54194793991058,"lng":-122.6505021750927},"num_vehicles":1,"products":[{"type":"standard","label":"Zipcars"}]},{"location_id":68893719,"display_name":"NE 27th Ave/NE Alberta St - On-Street","address":{"street":"4971 N.E. 27th Ave.","city":"Portland","region_name":"Oregon","postal_code":"97211","country_code":"US"},"coordinates":{"lat":45.55876062878329,"lng":-122.63796552999992},"num_vehicles":1,"products":[{"type":"standard","label":"Zipcars"}]},{"location_id":1943393132,"display_name":"Indian Pipe Loop","address":{"street":"4205 Indian Pipe Loop Northwest","city":"Olympia","region_name":"Washington","postal_code":"98505","country_code":"US"},"coordinates":{"lat":47.07567518951416,"lng":-122.97299163806343},"num_vehicles":1,"products":[{"type":"standard","label":"Zipcars"}]},{"location_id":1667098645,"display_name":"Pacific University - Parking Lot G","address":{"street":"2209 College Way","city":"Forest Grove","region_name":"Oregon","postal_code":"97116","country_code":"US"},"coordinates":{"lat":45.52254738594121,"lng":-123.11056709537161},"num_vehicles":1,"products":[{"type":"standard","label":"Zipcars"}]},{"location_id":2602760744,"display_name":"Pacific University - 222 SE 8th Avenue, Hillsboro, OR 97123 - Creighton Hall","address":{"street":"222 Southeast 8th Avenue","city":"Hillsboro","region_name":"Oregon","postal_code":"97123","country_code":"US"},"coordinates":{"lat":45.52172436462957,"lng":-122.97834534379422},"num_vehicles":1,"products":[{"type":"standard","label":"Zipcars"}]},{"location_id":1525555156,"display_name":"Trimet - NW Quatama Rd/NW 205th Ave MAX Station","address":{"street":"20675 NW Quatama Rd.","city":"Hillsboro","region_name":"Oregon","postal_code":"97006","country_code":"US"},"coordinates":{"lat":45.522701,"lng":-122.889015},"num_vehicles":1,"products":[{"type":"standard","label":"Zipcars"}]},{"location_id":1457340825,"display_name":"6523 NE Cherry Drive - Tessera Apartments Garage","address":{"street":"6523 NE Cherry Drive","city":"Hillsboro","region_name":"Oregon","postal_code":"97124","country_code":"US"},"coordinates":{"lat":45.53161093646155,"lng":-122.91271354166412},"num_vehicles":1,"products":[{"type":"standard","label":"Zipcars"}]},{"location_id":1727085307,"display_name":"Trimet - Willow Creek/SW 185th Ave Park & Ride","address":{"street":"235 Southwest Edgeway Drive","city":"Hillsboro","region_name":"Oregon","postal_code":"97006","country_code":"US"},"coordinates":{"lat":45.51843093009367,"lng":-122.87057447354124},"num_vehicles":1,"products":[{"type":"standard","label":"Zipcars"}]},{"location_id":1214040723,"display_name":"Trimet  - Beaverton Transit Center","address":{"street":"4050 SW Lombard","city":"Beaverton","region_name":"Oregon","postal_code":"97005","country_code":"US"},"coordinates":{"lat":45.49118601861849,"lng":-122.8022040697129},"num_vehicles":1,"products":[{"type":"standard","label":"Zipcars"}]},{"location_id":132475710,"display_name":"735 St Clair - St Clair Apartments","address":{"street":"735 SW St. Clair Ave.","city":"Portland","region_name":"Oregon","postal_code":"97205","country_code":"US"},"coordinates":{"lat":45.52273049931301,"lng":-122.69762456417084},"num_vehicles":1,"products":[{"type":"standard","label":"Zipcars"}]},{"location_id":355148004,"display_name":"NW Everett St/NW 22nd Ave - Lot","address":{"street":"2241 NW Everett","city":"Portland","region_name":"Oregon","postal_code":"97210","country_code":"US"},"coordinates":{"lat":45.52490096560689,"lng":-122.69715115674592},"num_vehicles":2,"products":[{"type":"standard","label":"Zipcars"}]},{"location_id":1800656663,"display_name":"UP - N Van Houten Ave/N Warren St - On-Street","address":{"street":"6544 North Van Houten Avenue","city":"Portland","region_name":"Oregon","postal_code":"97203","country_code":"US"},"coordinates":{"lat":45.5756,"lng":-122.730868},"num_vehicles":1,"products":[{"type":"standard","label":"Zipcars"}]},{"location_id":68892322,"display_name":"University of Portland - Main Parking Lot","address":{"street":"5000 N. Willamette Blvd.","city":"Portland","region_name":"Oregon","postal_code":"97203","country_code":"US"},"coordinates":{"lat":45.57346362021177,"lng":-122.72577568888664},"num_vehicles":1,"products":[{"type":"standard","label":"Zipcars"}]},{"location_id":1112173182,"display_name":"Lewis & Clark - Odell Residence Hall - Lot","address":{"street":"700 SW Huddleson Ln","city":"Portland","region_name":"Oregon","postal_code":"97219","country_code":"US"},"coordinates":{"lat":45.44866878969562,"lng":-122.67145092009889},"num_vehicles":1,"products":[{"type":"standard","label":"Zipcars"}]},{"location_id":2005012626,"display_name":"Oregon State - Memorial Union - SW 26th St/SW Jefferson Way","address":{"street":"220 Southwest Jefferson Way","city":"Corvallis","region_name":"Oregon","postal_code":"97331","country_code":"US"},"coordinates":{"lat":44.5650941,"lng":-123.280357},"num_vehicles":2,"products":[{"type":"standard","label":"Zipcars"}]},{"location_id":68893987,"display_name":"Willamette - Ferry St SE/Church St SE - Salem, OR - Lot","address":{"street":"180 Church St. SE","city":"Salem","region_name":"Oregon","postal_code":"97301","country_code":"US"},"coordinates":{"lat":44.9383392333984,"lng":-123.035568237305},"num_vehicles":1,"products":[{"type":"standard","label":"Zipcars"}]},{"location_id":2201200563,"display_name":"Oregon State - McNary Dining Hall","address":{"street":"1220 Southwest Jefferson Way","city":"Corvallis","region_name":"Oregon","postal_code":"97331","country_code":"US"},"coordinates":{"lat":44.5643842,"lng":-123.2718429},"num_vehicles":2,"products":[{"type":"standard","label":"Zipcars"}]},{"location_id":2005015412,"display_name":"Oregon State - INTO/ILLC Building West","address":{"street":"1600 SW A Ave.","city":"Corvallis","region_name":"Oregon","postal_code":"97333","country_code":"US"},"coordinates":{"lat":44.5606968,"lng":-123.2756269},"num_vehicles":2,"products":[{"type":"standard","label":"Zipcars"}]}]}